{"type":"FeatureCollection","features":[{"type":"Feature","properties":{"Name":"Fisikon/EKO","City":"Koropi"},"geometry":{"type":"Point","coordinates":[23.878805637359616,37.93550767623738]}},{"type":"Feature","properties":{"Name":"Fisikon","City":"Anthousa"},"geometry":{"type":"Point","coordinates":[23.868377208709717,38.0125717668363]}},{"type":"Feature","properties":{"Name":"BP","City":"Ilioupoli"},"geometry":{"type":"Point","coordinates":[23.759039640426636,37.930337293176166]}},{"type":"Feature","properties":{"Name":"EKO/Fisikon","City":"Agios Ioannis Rentis"},"geometry":{"type":"Point","coordinates":[23.670312166213986,37.97522963676577]}},{"type":"Feature","properties":{"Name":"EKO/Fisikon","City":"Nea Filadelfia"},"geometry":{"type":"Point","coordinates":[23.734813928604126,38.04111195082717]}},{"type":"Feature","properties":{"Name":"EKO/Fisikon","City":"Kifisia"},"geometry":{"type":"Point","coordinates":[23.812984228134155,38.07737328921378]}},{"type":"Feature","properties":{"Name":"Fisikon","City":"Ano Liosia"},"geometry":{"type":"Point","coordinates":[23.692510128021237,38.093810627676305]}},{"type":"Feature","properties":{"Name":"Fisikon/BP","City":"Aspropirgos"},"geometry":{"type":"Point","coordinates":[23.59451293945312,38.03485045809561]}},{"type":"Feature","properties":{"Name":"BP","City":"Chalkida"},"geometry":{"type":"Point","coordinates":[23.61190438270569,38.45534888173513]}},{"type":"Feature","properties":{"Name":"BP/Fisikon","City":"Lamia"},"geometry":{"type":"Point","coordinates":[22.50021994113922,38.9005686828197]}},{"type":"Feature","properties":{"Name":"Promethan","City":"Trikala"},"geometry":{"type":"Point","coordinates":[21.78464412689209,39.538299668155]}},{"type":"Feature","properties":{"Name":"EKO/Fisikon","City":"Larisa"},"geometry":{"type":"Point","coordinates":[22.438523769378662,39.63274174449325]}},{"type":"Feature","properties":{"Name":"EKO/Fisikon","City":"Evaggelismos"},"geometry":{"type":"Point","coordinates":[22.508593797683712,39.81503848626772]}},{"type":"Feature","properties":{"Name":"EKO/Fisikon","City":"Evaggelismos"},"geometry":{"type":"Point","coordinates":[22.507150769233704,39.81437096323047]}},{"type":"Feature","properties":{"Name":"Promethan","City":"Thessaloniki/Sindos"},"geometry":{"type":"Point","coordinates":[22.798288464546204,40.683550743651246]}},{"type":"Feature","properties":{"Name":"BP/Fisikon","City":"Thessaloniki/Nea Magnisia"},"geometry":{"type":"Point","coordinates":[22.850098013877865,40.68920495933546]}},{"type":"Feature","properties":{"Name":"BP","City":"Thessaloniki/Stauroupoli"},"geometry":{"type":"Point","coordinates":[22.936357855796814,40.677468875527246]}},{"type":"Feature","properties":{"Name":"EKO/Fisikon","City":"Thessaloniki/Thermi"},"geometry":{"type":"Point","coordinates":[22.98840880393982,40.5410937125079]}},{"type":"Feature","properties":{"Name":"EKO/Fisikon","City":"Psathopurgos"},"geometry":{"type":"Point","coordinates":[21.866923570632935,38.32540519786575]}},{"type":"Feature","properties":{"Name":"EKO/Fisikon","City":"Psathopurgos"},"geometry":{"type":"Point","coordinates":[21.870195865631104,38.324344674847815]}},{"type":"Feature","properties":{"Name":"Elin","City":"Larisa"},"geometry":{"type":"Point","coordinates":[22.38708972930908,39.616813362548704]}},{"type":"Feature","properties":{"Name":"Fisikon","City":"Ioannina"},"geometry":{"type":"Point","coordinates":[20.84954023361206,39.62062741792508]}},{"type":"Feature","properties":{"Name":"Fisikon","City":"Ioannina"},"geometry":{"type":"Point","coordinates":[20.84851562976837,39.62750706211065]}},{"type":"Feature","properties":{"Name":"BP-Fisikon","City":"Volos"},"geometry":{"type":"Point","coordinates":[22.921578884124756,39.3678602857158]}}]}